[{"SubmissionId":1,"Date":"2014-07-15 17:53:02.127","Latitude":52.385,"Longitude":4.636,"Address":"AH Kruisstraat 10, Haarlem "},
{"SubmissionId":2,"Date":"2014-07-15 15:46:19.627","Latitude":52.382,"Longitude":4.857,"Address":"AH: Bos en Lommerweg 117, Amsterdam,"},
{"SubmissionId":3,"Date":"2014-07-15 12:35:49.877","Latitude":52.310,"Longitude":4.847,"Address":"AH Amsterdamseweg 136, Amstelveen "},
{"SubmissionId":4,"Date":"2014-07-15 11:54:08.017","Latitude":52.202,"Longitude":4.633,"Address":"PLUS Noordplein 25??, Roelofarendsveen "},
{"SubmissionId":5,"Date":"2014-07-14 16:46:32.377","Latitude":51.644,"Longitude":5.954,"Address":"AH Steenstraat 136, Boxmeer "},
{"SubmissionId":6,"Date":"2014-07-14 07:02:46.953","Latitude":52.385,"Longitude":5.224,"Address":"JUMBO; Geinplein 34, 1316 HC Almere, Nederland"},
{"SubmissionId":7,"Date":"2014-07-12 14:26:52.187","Latitude":52.378,"Longitude":6.683,"Address":"C1000; Binnenhof 33, 7608 Almelo, Nederland"},
{"SubmissionId":8,"Date":"2014-07-12 13:22:31.423","Latitude":51.856,"Longitude":4.537,"Address":"AH Middenbaan 97, Barendrecht "},
{"SubmissionId":9,"Date":"2014-07-11 19:05:11.220","Latitude":51.849,"Longitude":4.544,"Address":"AH Middenbaan 97, Barendrecht "},
{"SubmissionId":10,"Date":"2014-07-11 16:02:10.750","Latitude":51.531,"Longitude":4.453,"Address":"AH Laan van Brabant 9, Roosendaal "},
{"SubmissionId":11,"Date":"2014-07-11 13:14:56.127","Latitude":51.663,"Longitude":4.533,"Address":"C1000; Doorsteek 9, Klundert"},
{"SubmissionId":12,"Date":"2014-07-11 10:38:14.483","Latitude":51.812,"Longitude":4.667,"Address":"AH Achterom 42, Dordrecht "},
{"SubmissionId":13,"Date":"2014-07-10 14:52:30.750","Latitude":52.096,"Longitude":5.108,"Address":"AH Amsterdamsestraatweg 56, Utrecht "},
{"SubmissionId":14,"Date":"2014-07-10 14:24:52.860","Latitude":52.147,"Longitude":4.477,"Address":"AH Bevrijdingsplein 50, Leiden "},
{"SubmissionId":15,"Date":"2014-07-10 12:28:56.233","Latitude":52.342,"Longitude":4.962,"Address":"AH Claas van Maarssenplein 23, Diemen "},
{"SubmissionId":16,"Date":"2014-07-10 10:48:25.483","Latitude":51.813,"Longitude":4.626,"Address":"AH Kort Ambachtlaan 123, Zwijndrecht "},
{"SubmissionId":17,"Date":"2014-07-10 09:04:48.937","Latitude":51.622,"Longitude":4.743,"Address":"AH Heksenwaag 2, Breda "},
{"SubmissionId":18,"Date":"2014-07-09 16:52:21.610","Latitude":52.380,"Longitude":4.824,"Address":"Albert Heijn: Willem Kraanstraat 2, 1063 Geuzenveld-Slotermeer, Nederland"},
{"SubmissionId":19,"Date":"2014-07-09 15:07:29.780","Latitude":52.071,"Longitude":4.495,"Address":"AH Broekwegzijde 150, Zoetermeer "},
{"SubmissionId":20,"Date":"2014-07-09 12:55:31.593","Latitude":53.062,"Longitude":5.528,"Address":"Jumbo Snekerstraat 14 8701 XD Bolsward "},
{"SubmissionId":21,"Date":"2014-07-09 12:33:02.827","Latitude":53.215,"Longitude":6.570,"Address":"AH Gedempte Zuiderdiep 14, Groningen "},
{"SubmissionId":22,"Date":"2014-07-09 10:51:38.890","Latitude":52.363,"Longitude":4.940,"Address":"AH: Molukkenstraat 101, Amsterdam, The Netherlands"},
{"SubmissionId":23,"Date":"2014-07-09 10:03:36.437","Latitude":53.173,"Longitude":6.608,"Address":"Albert Heijn Kerkstraat 27, Haren "},
{"SubmissionId":24,"Date":"2014-07-08 15:33:05.627","Latitude":52.093,"Longitude":5.013,"Address":"AH: Hammarskjoldhof 64, Utrecht"},
{"SubmissionId":25,"Date":"2014-07-08 15:16:46.390","Latitude":52.025,"Longitude":4.276,"Address":"AH Struyck van Bergenstraat 2, Wateringen "},
{"SubmissionId":26,"Date":"2014-07-08 14:58:25.030","Latitude":52.353,"Longitude":4.903,"Address":"AH: Van Woustraat 150, Amsterdam"},
{"SubmissionId":27,"Date":"2014-07-08 11:11:07.360","Latitude":52.461,"Longitude":6.000,"Address":"Clematisstraat 3, 8091 VJ Wezep, Nederland"},
{"SubmissionId":28,"Date":"2014-07-07 16:54:49.937","Latitude":51.813,"Longitude":4.626,"Address":"AH Kort Ambachtlaan 123, Zwijndrecht "},
{"SubmissionId":29,"Date":"2014-07-07 12:50:31.500","Latitude":51.284,"Longitude":5.749,"Address":"EMT?? Burgemeester Hobusstraat 33, Nederweert "},
{"SubmissionId":30,"Date":"2014-07-07 10:28:38.280","Latitude":52.655,"Longitude":4.758,"Address":"AH Europaboulevard 26, Alkmaar "},
{"SubmissionId":31,"Date":"2014-07-07 09:28:21.030","Latitude":52.282,"Longitude":6.422,"Address":"Albert Heijn; Dorpsstraat 17, 7451 BR Holten, Nederland"},
{"SubmissionId":32,"Date":"2014-07-06 15:56:57.627","Latitude":52.187,"Longitude":4.471,"Address":"AH Irislaan 83, Oegstgeest "},
{"SubmissionId":33,"Date":"2014-07-05 14:44:35.110","Latitude":51.533,"Longitude":5.984,"Address":"Jan Linders; Raadhuisstraat 100, Venray"},
{"SubmissionId":34,"Date":"2014-07-05 14:07:42.860","Latitude":53.001,"Longitude":6.515,"Address":"Rondgang 20, 9 Assen"},
{"SubmissionId":35,"Date":"2014-07-05 12:43:38.843","Latitude":52.529,"Longitude":6.103,"Address":"AH, Dobbe 61, Zwolle "},
{"SubmissionId":36,"Date":"2014-07-04 16:25:53.470","Latitude":51.644,"Longitude":4.605,"Address":"AH Molenstraat 17, Zevenbergen "},
{"SubmissionId":37,"Date":"2014-07-04 09:14:44.327","Latitude":51.916,"Longitude":4.588,"Address":"AH Raadhuisplein 58, Krimpen aan den IJssel "},
{"SubmissionId":38,"Date":"2014-07-03 15:35:12.797","Latitude":51.870,"Longitude":5.400,"Address":"AH Kamperfoelie 1, Tiel "},
{"SubmissionId":39,"Date":"2014-07-03 15:03:14.470","Latitude":52.033,"Longitude":5.346,"Address":"AH Dorpsstraat 25, Doorn "},
{"SubmissionId":40,"Date":"2014-07-03 11:29:53.093","Latitude":51.967,"Longitude":5.908,"Address":"AH Drieslag 4, Arnhem, Arnhem "},
{"SubmissionId":41,"Date":"2014-07-02 14:00:42.017","Latitude":52.382,"Longitude":4.856,"Address":"AH: Bos en Lommerweg 117, Amsterdam,"},
{"SubmissionId":42,"Date":"2014-07-02 13:03:14.140","Latitude":51.929,"Longitude":4.546,"Address":"AH: Mia van IJperenplein, Rotterdam, Nederland"},
{"SubmissionId":43,"Date":"2014-07-02 10:15:33.313","Latitude":52.105,"Longitude":6.059,"Address":"Dekamarkt; Nobelstraat 22, Eerbeek"},
{"SubmissionId":44,"Date":"2014-07-02 08:37:44.250","Latitude":52.255,"Longitude":6.169,"Address":"AH Flora 54, Deventer "},
{"SubmissionId":45,"Date":"2014-07-01 17:56:45.877","Latitude":52.124,"Longitude":4.650,"Address":"Hoogvliet; Provinciepassage, Alphen aan den Rijn"},
{"SubmissionId":46,"Date":"2014-07-01 14:52:06.687","Latitude":52.843,"Longitude":5.709,"Address":"Jumbo: Stationsweg 4, Lemmer "},
{"SubmissionId":47,"Date":"2014-07-01 14:18:26.767","Latitude":51.911,"Longitude":4.340,"Address":"AH Veerplein 112, Vlaardingen "},
{"SubmissionId":48,"Date":"2014-07-01 14:04:24.890","Latitude":52.353,"Longitude":4.903,"Address":"AH: Van Woustraat 150, Amsterdam"},
{"SubmissionId":49,"Date":"2014-07-01 13:20:15.327","Latitude":52.086,"Longitude":6.448,"Address":"Supercoop; Leeuwerikstraat, Ruurlo ‎"},
{"SubmissionId":50,"Date":"2014-07-01 12:29:28.780","Latitude":51.569,"Longitude":4.639,"Address":"AH Burchtplein 13, Etten-Leur "},
{"SubmissionId":51,"Date":"2014-07-01 10:54:09.877","Latitude":52.530,"Longitude":6.101,"Address":"AH, Dobbe 61, Zwolle "},
{"SubmissionId":52,"Date":"2014-06-30 16:43:22.780","Latitude":53.149,"Longitude":6.742,"Address":"Jumbo Pleiaden 11, Hoogezand "},
{"SubmissionId":53,"Date":"2014-06-30 16:26:28.907","Latitude":53.253,"Longitude":6.142,"Address":"Coop Christinastraat 3, Buitenpost "},
{"SubmissionId":54,"Date":"2014-06-30 15:20:31.297","Latitude":52.403,"Longitude":5.304,"Address":"AH, Ambonstraat 2008, Almere "},
{"SubmissionId":55,"Date":"2014-06-30 14:53:52.813","Latitude":52.382,"Longitude":4.856,"Address":"AH: Bos en Lommerweg 117, Amsterdam,"},
{"SubmissionId":56,"Date":"2014-06-30 12:39:17.140","Latitude":53.034,"Longitude":5.655,"Address":"AH Sint Antoniusplein 35, Sneek "},
{"SubmissionId":57,"Date":"2014-06-30 12:09:20.453","Latitude":52.027,"Longitude":5.162,"Address":"AH Plein 13, Houten "},
{"SubmissionId":58,"Date":"2014-06-30 10:22:46.593","Latitude":51.754,"Longitude":5.511,"Address":"AH Sterrebos 2, Oss "},
{"SubmissionId":59,"Date":"2014-06-30 08:11:00.563","Latitude":52.378,"Longitude":6.678,"Address":"C1000; Binnenhof 33, 7608 Almelo, Nederland"},
{"SubmissionId":60,"Date":"2014-06-30 07:20:13.827","Latitude":52.297,"Longitude":4.902,"Address":"PLUS Dorpsstraat 23, Ouderkerk aan den Amstel "},
{"SubmissionId":61,"Date":"2014-06-29 14:22:31.043","Latitude":50.941,"Longitude":5.923,"Address":"AH Hoofdstraat 45, Amstenrade "},
{"SubmissionId":62,"Date":"2014-06-27 17:33:23.310","Latitude":51.988,"Longitude":6.568,"Address":"AH, Varkensmarkt 12, Lichtenvoorde "},
{"SubmissionId":63,"Date":"2014-06-27 13:26:57.700","Latitude":53.147,"Longitude":6.566,"Address":"AH Hoofdweg 202, Paterswolde "},
{"SubmissionId":64,"Date":"2014-06-27 11:29:35.933","Latitude":53.112,"Longitude":6.885,"Address":"AH Beneden Oosterdiep 165, Veendam "},
{"SubmissionId":65,"Date":"2014-06-26 17:10:20.450","Latitude":52.529,"Longitude":6.102,"Address":"AH, Dobbe 61, Zwolle "},
{"SubmissionId":66,"Date":"2014-06-26 14:19:16.543","Latitude":53.213,"Longitude":6.274,"Address":"AH Hoofdstraat 135, Grootegast "},
{"SubmissionId":67,"Date":"2014-06-26 14:00:41.013","Latitude":51.530,"Longitude":4.454,"Address":"AH Laan van Brabant 9, Roosendaal "},
{"SubmissionId":68,"Date":"2014-06-26 13:26:41.513","Latitude":51.106,"Longitude":5.879,"Address":"AH Nieuwe Markt 45, Echt "},
{"SubmissionId":69,"Date":"2014-06-26 12:02:05.763","Latitude":51.884,"Longitude":5.606,"Address":"AH Scharenburg 21, Druten "},
{"SubmissionId":70,"Date":"2014-06-26 09:32:42.060","Latitude":53.381,"Longitude":5.964,"Address":"Spar; Aldbuorren 21, 9145 SE Ternaard"},
{"SubmissionId":71,"Date":"2014-06-25 16:39:45.357","Latitude":51.840,"Longitude":4.698,"Address":"AH Espenhof 20, Papendrecht "},
{"SubmissionId":72,"Date":"2014-06-25 16:13:50.857","Latitude":51.272,"Longitude":3.439,"Address":"C1000; Peurssensstraat 21, Aardenburg"},
{"SubmissionId":73,"Date":"2014-06-25 12:49:52.433","Latitude":52.559,"Longitude":4.844,"Address":"Plus Driemaster 3, De Rijp "},
{"SubmissionId":74,"Date":"2014-06-25 09:16:33.670","Latitude":52.372,"Longitude":6.663,"Address":"C1000; Binnenhof 33, 7608 Almelo, Nederland"},
{"SubmissionId":75,"Date":"2014-06-24 18:02:20.107","Latitude":52.875,"Longitude":5.997,"Address":"Albert Heijn; Van Harenstraat 66, Wolvega "},
{"SubmissionId":76,"Date":"2014-06-24 12:41:24.967","Latitude":53.111,"Longitude":6.884,"Address":"AH Beneden Oosterdiep 165, Veendam "},
{"SubmissionId":77,"Date":"2014-06-23 16:44:20.607","Latitude":51.434,"Longitude":5.472,"Address":"AH Hoogstraat 100, Eindhoven "},
{"SubmissionId":78,"Date":"2014-06-23 15:13:53.543","Latitude":53.257,"Longitude":5.765,"Address":"AH Wythusterwei 12, Stiens "},
{"SubmissionId":79,"Date":"2014-06-23 12:55:41.653","Latitude":52.200,"Longitude":5.966,"Address":"AH, Talingweg 169, Apeldoorn "},
{"SubmissionId":80,"Date":"2014-06-23 11:30:40.903","Latitude":52.961,"Longitude":5.917,"Address":"AH Trambaan 11, Heerenveen "},
{"SubmissionId":81,"Date":"2014-06-23 10:39:12.467","Latitude":51.658,"Longitude":5.300,"Address":"AH Marktveldpassage 6, Vught "},
{"SubmissionId":82,"Date":"2014-06-23 06:26:28.700","Latitude":52.232,"Longitude":5.191,"Address":"AH Seinstraat 13, Hilversum "},
{"SubmissionId":83,"Date":"2014-06-21 18:35:08.607","Latitude":52.233,"Longitude":4.827,"Address":"AH Amstelplein 37, Uithoorn "},
{"SubmissionId":84,"Date":"2014-06-21 18:26:03.717","Latitude":52.463,"Longitude":4.810,"Address":"AH; Verzetstraat 10, Koog aan de Zaan, Nederland"},
{"SubmissionId":85,"Date":"2014-06-21 15:26:08.670","Latitude":51.871,"Longitude":4.780,"Address":"Spar; Lindenstraat 4, Bleskensgraaf "},
{"SubmissionId":86,"Date":"2014-06-21 12:16:30.450","Latitude":52.342,"Longitude":5.226,"Address":"AH; Markenlaan 3, 1355 Almere, Nederland"},
{"SubmissionId":87,"Date":"2014-06-21 12:07:22.747","Latitude":51.999,"Longitude":5.679,"Address":"AH Stadsbrink 375, Wageningen "},
{"SubmissionId":88,"Date":"2014-06-21 10:29:33.623","Latitude":52.892,"Longitude":6.141,"Address":"C1000; Industriestraat 18, 8391 Noordwolde, Nederland"},
{"SubmissionId":89,"Date":"2014-06-21 09:36:57.153","Latitude":50.949,"Longitude":5.960,"Address":"AH Kennedylaan 90, Brunssum "},
{"SubmissionId":90,"Date":"2014-06-20 15:24:10.280","Latitude":52.655,"Longitude":4.758,"Address":"AH Europaboulevard 26, Alkmaar "},
{"SubmissionId":91,"Date":"2014-06-20 15:11:16.793","Latitude":53.208,"Longitude":5.768,"Address":"Poiesz: Pieter Sipmawei 9, Leeuwarden,"},
{"SubmissionId":92,"Date":"2014-06-20 15:08:47.607","Latitude":52.321,"Longitude":4.600,"Address":"AH Schoollaan 23, Bennebroek "},
{"SubmissionId":93,"Date":"2014-06-20 14:08:22.043","Latitude":52.988,"Longitude":6.956,"Address":"AH Gandhiplein 12, Stadskanaal "},
{"SubmissionId":94,"Date":"2014-06-20 12:39:17.560","Latitude":52.875,"Longitude":5.997,"Address":"Albert Heijn; Van Harenstraat 66, Wolvega "},
{"SubmissionId":95,"Date":"2014-06-20 11:41:38.810","Latitude":52.080,"Longitude":4.296,"Address":"Elandstraat 160, 2513 GW Den Haag, Nederland"},
{"SubmissionId":96,"Date":"2014-06-20 06:44:24.217","Latitude":52.010,"Longitude":4.361,"Address":"AH Brabantse Turfmarkt 33, Delft "},
{"SubmissionId":97,"Date":"2014-06-19 17:52:09.857","Latitude":51.689,"Longitude":5.306,"Address":"AH: Arena 16, 's-Hertogenbosch"},
{"SubmissionId":98,"Date":"2014-06-19 11:54:52.310","Latitude":51.255,"Longitude":5.705,"Address":"AH Muntpassage 49, Weert "},
{"SubmissionId":99,"Date":"2014-06-19 11:01:03.623","Latitude":51.921,"Longitude":4.407,"Address":"AH Lange Kerkstraat 34, Schiedam "},
{"SubmissionId":100,"Date":"2014-06-19 09:58:55.560","Latitude":51.189,"Longitude":6.023,"Address":"AH Faunasingel 32, Roermond "},
{"SubmissionId":101,"Date":"2014-06-18 13:25:38.387","Latitude":52.196,"Longitude":5.431,"Address":"AH; Buma 1, Amersfoort"},
{"SubmissionId":102,"Date":"2014-06-18 12:35:02.763","Latitude":52.663,"Longitude":4.831,"Address":"AH Middenwaard 2, Heerhugowaard "},
{"SubmissionId":103,"Date":"2014-06-18 12:18:48.513","Latitude":51.453,"Longitude":3.585,"Address":"Jumbo Hermesweg 25, Vlissingen "},
{"SubmissionId":104,"Date":"2014-06-18 10:58:06.733","Latitude":52.509,"Longitude":4.958,"Address":"AH Burg, D, Kooimanweg 16, Purmerend "},
{"SubmissionId":105,"Date":"2014-06-18 10:01:34.247","Latitude":52.135,"Longitude":5.031,"Address":"AH Bisonspoor 1078, Maarssen "},
{"SubmissionId":106,"Date":"2014-06-17 14:18:07.170","Latitude":52.168,"Longitude":5.001,"Address":"AH Markt 10, Breukelen "},
{"SubmissionId":107,"Date":"2014-06-17 12:31:10.530","Latitude":52.216,"Longitude":5.979,"Address":"AH, Talingweg 169, Apeldoorn "},
{"SubmissionId":108,"Date":"2014-06-17 12:24:46.793","Latitude":51.423,"Longitude":5.559,"Address":"AH Heuvel 81, Geldrop "},
{"SubmissionId":109,"Date":"2014-06-17 10:08:10.153","Latitude":52.559,"Longitude":4.844,"Address":"Plus Driemaster 3, De Rijp "},
{"SubmissionId":110,"Date":"2014-06-17 09:35:12.483","Latitude":52.606,"Longitude":4.848,"Address":"Deka Schermeerstraat 11, Stompetoren "},
{"SubmissionId":111,"Date":"2014-06-16 15:36:11.200","Latitude":52.194,"Longitude":6.855,"Address":"Albert Heijn: Kevelhamhoek 71, 7546 Enschede"},
{"SubmissionId":112,"Date":"2014-06-16 15:28:11.420","Latitude":51.433,"Longitude":5.470,"Address":"AH Hoogstraat 100, Eindhoven "},
{"SubmissionId":113,"Date":"2014-06-16 15:27:07.107","Latitude":51.361,"Longitude":6.162,"Address":"AH Van Nijvenheimstraat 62, Venlo "},
{"SubmissionId":114,"Date":"2014-06-16 11:15:44.903","Latitude":52.319,"Longitude":4.661,"Address":"AH Muiderbos 140, Hoofddorp "},
{"SubmissionId":115,"Date":"2014-06-16 08:28:48.717","Latitude":51.227,"Longitude":3.799,"Address":"AH Wilhelminalaan 9, Sas van Gent "},
{"SubmissionId":116,"Date":"2014-06-15 15:55:18.903","Latitude":52.944,"Longitude":4.742,"Address":"AH: Marsdiepstraat 262, Den Helder"},
{"SubmissionId":117,"Date":"2014-06-15 15:51:30.077","Latitude":51.556,"Longitude":5.700,"Address":"AH Kapelaanstraat 25, Gemert "},
{"SubmissionId":118,"Date":"2014-06-15 13:54:06.513","Latitude":52.196,"Longitude":4.502,"Address":"AH Dorpsstraat 2, Warmond "},
{"SubmissionId":119,"Date":"2014-06-15 12:48:29.183","Latitude":52.080,"Longitude":4.268,"Address":"Albert Heijn; Fahrenheitstraat, Den Haag, Nederland "},
{"SubmissionId":120,"Date":"2014-06-15 10:51:59.530","Latitude":52.078,"Longitude":4.313,"Address":"Hofweg 11, 2511 AA, Den Haag"},
{"SubmissionId":121,"Date":"2014-06-14 16:28:37.903","Latitude":52.032,"Longitude":5.569,"Address":"Jumbo; Ronde Erf 66, 3902 CZ Veenendaal, Nederland"},
{"SubmissionId":122,"Date":"2014-06-14 13:42:37.433","Latitude":52.624,"Longitude":4.950,"Address":"Deen Vijverhof 9, Koggenland "},
{"SubmissionId":123,"Date":"2014-06-14 13:40:07.780","Latitude":52.363,"Longitude":4.940,"Address":"AH: Molukkenstraat 101, Amsterdam, The Netherlands"},
{"SubmissionId":124,"Date":"2014-06-14 12:59:33.717","Latitude":50.850,"Longitude":5.689,"Address":"AH: Helmstraat 4, Maastricht"},
{"SubmissionId":125,"Date":"2014-06-14 12:12:03.590","Latitude":53.216,"Longitude":6.570,"Address":"AH Gedempte Zuiderdiep 14, Groningen "},
{"SubmissionId":126,"Date":"2014-06-14 11:48:38.497","Latitude":51.918,"Longitude":4.400,"Address":"AH Lange Kerkstraat 34, Schiedam "},
{"SubmissionId":127,"Date":"2014-06-14 11:48:36.497","Latitude":52.408,"Longitude":4.916,"Address":"PLUS; Bezaanjachtplein 291, Amsterdam"},
{"SubmissionId":128,"Date":"2014-06-14 09:29:34.827","Latitude":51.833,"Longitude":4.131,"Address":"AH Evertsenplein 68, Hellevoetsluis "},
{"SubmissionId":129,"Date":"2014-06-13 16:45:40.977","Latitude":52.362,"Longitude":4.940,"Address":"AH: Molukkenstraat 101, Amsterdam, The Netherlands"},
{"SubmissionId":130,"Date":"2014-06-13 15:05:29.270","Latitude":52.679,"Longitude":4.804,"Address":"Vomar Marktplein 3, Broek Op Langedijk "},
{"SubmissionId":131,"Date":"2014-06-13 12:57:56.840","Latitude":52.124,"Longitude":4.652,"Address":"Hoogvliet; Provinciepassage, Alphen aan den Rijn"},
{"SubmissionId":132,"Date":"2014-06-13 12:49:41.060","Latitude":52.128,"Longitude":5.210,"Address":"AH De Kwinkelier 30, Bilthoven "},
{"SubmissionId":133,"Date":"2014-06-13 11:21:31.583","Latitude":52.336,"Longitude":6.630,"Address":"C1000: De Gors 27, 7609 Almelo, Nederland"},
{"SubmissionId":134,"Date":"2014-06-13 10:36:16.803","Latitude":51.929,"Longitude":4.546,"Address":"AH: Mia van IJperenplein, Rotterdam, Nederland"},
{"SubmissionId":135,"Date":"2014-06-12 15:31:44.037","Latitude":52.204,"Longitude":4.399,"Address":"AH Tramstraat 60, Katwijk "},
{"SubmissionId":136,"Date":"2014-06-12 15:25:53.527","Latitude":52.025,"Longitude":4.276,"Address":"AH Struyck van Bergenstraat 2, Wateringen "},
{"SubmissionId":137,"Date":"2014-06-12 15:20:02.630","Latitude":52.072,"Longitude":5.125,"Address":"PLUS: Smaragdplein 216, Utrecht"},
{"SubmissionId":138,"Date":"2014-06-12 11:59:40.460","Latitude":52.085,"Longitude":4.886,"Address":"AH Wagenstraat 24, Woerden "},
{"SubmissionId":139,"Date":"2014-06-11 16:13:01.220","Latitude":51.919,"Longitude":4.477,"Address":"AH Lijnbaan 121, Rotterdam "},
{"SubmissionId":140,"Date":"2014-06-11 16:08:23.577","Latitude":51.870,"Longitude":5.400,"Address":"AH Kamperfoelie 1, Tiel "},
{"SubmissionId":141,"Date":"2014-06-11 12:46:54.127","Latitude":51.582,"Longitude":5.007,"Address":"Buurmalsenplein 1, Tilburg "},
{"SubmissionId":142,"Date":"2014-06-11 10:57:31.013","Latitude":52.448,"Longitude":4.803,"Address":"AH Langeweide 77, Zaandam "},
{"SubmissionId":143,"Date":"2014-06-11 10:44:51.143","Latitude":51.471,"Longitude":4.661,"Address":"AH Molenstraat 58, Zundert "},
{"SubmissionId":144,"Date":"2014-06-11 10:40:34.483","Latitude":52.009,"Longitude":4.361,"Address":"AH Brabantse Turfmarkt 33, Delft "},
{"SubmissionId":145,"Date":"2014-06-11 09:56:48.243","Latitude":52.148,"Longitude":4.474,"Address":"AH Bevrijdingsplein 50, Leiden "},
{"SubmissionId":146,"Date":"2014-06-11 09:19:50.763","Latitude":52.656,"Longitude":4.757,"Address":"AH Europaboulevard 26, Alkmaar "},
{"SubmissionId":147,"Date":"2014-06-10 18:55:36.940","Latitude":52.271,"Longitude":4.620,"Address":"AH Händelplein 185, Nieuw-Vennep"},
{"SubmissionId":148,"Date":"2014-06-10 18:50:35.383","Latitude":52.271,"Longitude":4.620,"Address":"AH Händelplein 185, Nieuw-Vennep"},
{"SubmissionId":149,"Date":"2014-06-10 17:29:16.147","Latitude":52.603,"Longitude":4.688,"Address":"AH Het Hoekstuk 6, Heiloo "},
{"SubmissionId":150,"Date":"2014-06-10 12:21:25.147","Latitude":52.240,"Longitude":5.366,"Address":"C1000 Tuinfluiter 1, Bunschoten-Spakenburg "},
{"SubmissionId":151,"Date":"2014-06-10 12:10:59.657","Latitude":51.862,"Longitude":5.771,"Address":"AH Kerkplein 72, Beuningen "},
{"SubmissionId":152,"Date":"2014-06-10 11:16:00.003","Latitude":52.695,"Longitude":5.177,"Address":"Deen Raadhuisplein 4-5, Hoogkarspel "},
{"SubmissionId":153,"Date":"2014-06-10 10:55:21.543","Latitude":53.360,"Longitude":5.215,"Address":"SPAR Boomstraat 5-13, West-Terschelling "},
{"SubmissionId":154,"Date":"2014-06-10 09:26:46.390","Latitude":52.255,"Longitude":6.786,"Address":"AH Boekeloseweg 26, Hengelo "},
{"SubmissionId":155,"Date":"2014-06-09 14:26:22.117","Latitude":51.255,"Longitude":5.705,"Address":"AH Muntpassage 49, Weert "},
{"SubmissionId":156,"Date":"2014-06-09 13:53:34.397","Latitude":51.658,"Longitude":5.300,"Address":"AH Marktveldpassage 6, Vught "},
{"SubmissionId":157,"Date":"2014-06-07 18:18:31.320","Latitude":51.782,"Longitude":5.854,"Address":"AH Winkelcentrum 19, Malden "},
{"SubmissionId":158,"Date":"2014-06-07 15:15:06.147","Latitude":52.698,"Longitude":6.189,"Address":"AH Grote Akkerstraat 1, Meppel "},
{"SubmissionId":159,"Date":"2014-06-07 12:48:50.097","Latitude":51.338,"Longitude":5.569,"Address":"Jumbo, Smits van Oyenlaan 2G, Maarheeze"},
{"SubmissionId":160,"Date":"2014-06-07 11:38:32.737","Latitude":52.529,"Longitude":6.103,"Address":"AH, Dobbe 61, Zwolle "},
{"SubmissionId":161,"Date":"2014-06-06 13:48:05.280","Latitude":52.511,"Longitude":4.667,"Address":"AH Kerkweg 85, Heemskerk "},
{"SubmissionId":162,"Date":"2014-06-05 17:05:40.527","Latitude":53.217,"Longitude":6.567,"Address":"AH Gedempte Zuiderdiep 14, Groningen "},
{"SubmissionId":163,"Date":"2014-06-05 15:41:59.727","Latitude":52.511,"Longitude":4.667,"Address":"AH Kerkweg 85, Heemskerk "},
{"SubmissionId":164,"Date":"2014-06-05 14:37:56.150","Latitude":51.988,"Longitude":5.980,"Address":"Coop; President Kennedylaan 301, Velp "},
{"SubmissionId":165,"Date":"2014-06-05 14:31:55.610","Latitude":51.888,"Longitude":4.490,"Address":"Albert Heijn: Zuidplein 622, Rotterdam "},
{"SubmissionId":166,"Date":"2014-06-05 14:25:28.523","Latitude":51.987,"Longitude":5.980,"Address":"Coop; President Kennedylaan 301, Velp "},
{"SubmissionId":167,"Date":"2014-06-05 14:17:57.657","Latitude":52.151,"Longitude":4.660,"Address":"AH Herenhof 74, Alphen aan den Rijn "},
{"SubmissionId":168,"Date":"2014-06-05 14:01:19.107","Latitude":52.378,"Longitude":6.678,"Address":"C1000; Binnenhof 33, 7608 Almelo, Nederland"},
{"SubmissionId":169,"Date":"2014-06-05 11:46:25.337","Latitude":52.087,"Longitude":4.383,"Address":"AH Rozemarijn 3 , Leidschendam "},
{"SubmissionId":170,"Date":"2014-06-05 10:29:53.403","Latitude":52.655,"Longitude":4.758,"Address":"AH Europaboulevard 26, Alkmaar "},
{"SubmissionId":171,"Date":"2014-06-04 17:30:30.860","Latitude":51.940,"Longitude":5.941,"Address":"AH; Stadsdam 2, Huissen "},
{"SubmissionId":172,"Date":"2014-06-04 17:16:05.453","Latitude":51.574,"Longitude":5.092,"Address":"Jumbo: Bart van Peltplein 1, 5046 Oud-Noord Tilburg, Nederland "},
{"SubmissionId":173,"Date":"2014-06-04 13:36:55.317","Latitude":51.968,"Longitude":4.619,"Address":"AH Reigerhof 150, Nieuwerkerk aan den IJssel "},
{"SubmissionId":174,"Date":"2014-06-04 11:35:44.173","Latitude":51.919,"Longitude":4.477,"Address":"AH Lijnbaan 121, Rotterdam "},
{"SubmissionId":175,"Date":"2014-06-03 17:31:05.487","Latitude":51.257,"Longitude":5.699,"Address":"AH Muntpassage 49, Weert "},
{"SubmissionId":176,"Date":"2014-06-03 16:18:38.363","Latitude":52.072,"Longitude":5.125,"Address":"PLUS: Smaragdplein 216, Utrecht"},
{"SubmissionId":177,"Date":"2014-06-03 14:14:23.697","Latitude":51.615,"Longitude":5.547,"Address":"AH Stadhuisplein 6, Veghel "},
{"SubmissionId":178,"Date":"2014-06-03 12:52:39.777","Latitude":52.759,"Longitude":6.600,"Address":"AH Griendtsveenweg 20, Hoogeveen "},
{"SubmissionId":179,"Date":"2014-06-03 12:33:49.193","Latitude":51.516,"Longitude":4.703,"Address":"PLUS: Sint Bavostraat 50, Rijsbergen, Nederland"},
{"SubmissionId":180,"Date":"2014-06-03 07:50:02.903","Latitude":52.196,"Longitude":5.431,"Address":"AH; Buma 1, Amersfoort"},
{"SubmissionId":181,"Date":"2014-06-02 18:08:33.737","Latitude":52.357,"Longitude":4.893,"Address":"Dirk van den Broek: Marie Heinekenplein 25, 1072 Amsterdam, Nederland "},
{"SubmissionId":182,"Date":"2014-06-02 16:34:07.300","Latitude":52.083,"Longitude":4.744,"Address":"AH Oud Bodegraafseweg 23, Bodegraven "},
{"SubmissionId":183,"Date":"2014-06-02 15:26:52.320","Latitude":52.145,"Longitude":4.674,"Address":"AH: Ridderhof, Alphen aan den Rijn"},
{"SubmissionId":184,"Date":"2014-06-02 14:21:40.977","Latitude":52.289,"Longitude":5.171,"Address":"AH, Amersfoortsestraatweg 3A, Naarden "},
{"SubmissionId":185,"Date":"2014-06-02 12:33:59.380","Latitude":51.418,"Longitude":5.392,"Address":"AH De Schaatsenmaker 8, Veldhoven "},
{"SubmissionId":186,"Date":"2014-06-02 11:54:10.270","Latitude":51.255,"Longitude":5.705,"Address":"AH Muntpassage 49, Weert "},
{"SubmissionId":187,"Date":"2014-06-02 10:32:14.753","Latitude":53.033,"Longitude":5.656,"Address":"AH Sint Antoniusplein 35, Sneek "},
{"SubmissionId":188,"Date":"2014-06-02 08:32:09.500","Latitude":50.999,"Longitude":5.859,"Address":"AH Brugstraat 1, Sittard "},
{"SubmissionId":189,"Date":"2014-06-02 07:11:38.720","Latitude":51.418,"Longitude":5.392,"Address":"AH De Schaatsenmaker 8, Veldhoven "},
{"SubmissionId":190,"Date":"2014-05-31 17:31:06.920","Latitude":52.389,"Longitude":4.621,"Address":"AH Kruisstraat 10, Haarlem "},
{"SubmissionId":191,"Date":"2014-05-31 15:39:57.467","Latitude":52.043,"Longitude":6.614,"Address":"AH Beltrumsestraat 40, Groenlo "},
{"SubmissionId":192,"Date":"2014-05-31 14:22:47.170","Latitude":52.027,"Longitude":5.162,"Address":"AH Plein 13, Houten "},
{"SubmissionId":193,"Date":"2014-05-31 11:13:21.143","Latitude":51.812,"Longitude":4.667,"Address":"AH Achterom 42, Dordrecht "},
{"SubmissionId":194,"Date":"2014-05-31 10:37:35.803","Latitude":51.523,"Longitude":4.271,"Address":"C1000: Vogelgezang 95, Halsteren "},
{"SubmissionId":195,"Date":"2014-05-31 09:16:07.597","Latitude":50.997,"Longitude":5.868,"Address":"AH Brugstraat 1, Sittard "},
{"SubmissionId":196,"Date":"2014-05-31 08:35:19.477","Latitude":52.080,"Longitude":4.268,"Address":"Albert Heijn; Fahrenheitstraat, Den Haag, Nederland "},
{"SubmissionId":197,"Date":"2014-05-30 15:23:45.003","Latitude":51.973,"Longitude":5.934,"Address":"Jumbo: Doctor C. Lelyweg 9, Arnhem"},
{"SubmissionId":198,"Date":"2014-05-30 13:00:20.030","Latitude":53.000,"Longitude":6.513,"Address":"Rondgang 20, 9 Assen"},
{"SubmissionId":199,"Date":"2014-05-30 10:40:52.043","Latitude":51.710,"Longitude":5.367,"Address":"AH; Molenhoekpassage 5, 5242 CZ Rosmalen, Nederland"},
{"SubmissionId":200,"Date":"2014-05-30 06:59:24.717","Latitude":51.626,"Longitude":5.880,"Address":"EMT?? Molenstraat 1, Sint Anthonis "}]